City_ID,City,Country,Max Temp,Current Description,Lat,Lng,Hotel Name
0,San Cristobal,VE,69.98,overcast clouds,7.7669,-72.225,Posada Villaven C.A.
1,Rikitea,PF,75.02,overcast clouds,-23.1203,-134.9692,People ThankYou
2,Butaritari,KI,81.88,few clouds,3.0707,172.7902,Isles Sunset Lodge
3,Castro,BR,80.29,broken clouds,-24.7911,-50.0119,CHACARA BAILLY
4,Sao Filipe,CV,74.79,scattered clouds,14.8961,-24.4956,Hotel Xaguate
5,Padang,ID,76.53,overcast clouds,-0.9492,100.3543,Mercure Padang
6,Port Alfred,ZA,63.48,overcast clouds,-33.5906,26.891,The Halyards Hotel
11,Busselton,AU,59.09,overcast clouds,-33.65,115.3333,Observatory Guest House
12,Faanui,PF,79.95,moderate rain,-16.4833,-151.75,Bora-Bora Pearl Beach Resort & Spa
14,Jamestown,US,46.09,overcast clouds,42.097,-79.2353,Hampton Inn & Suites Jamestown
15,Rio Grande,BR,71.94,scattered clouds,-32.035,-52.0986,Hotel Atlântico Rio Grande
16,Moroni,KM,82.4,few clouds,-11.7022,43.2551,Hotel les Arcades
18,Parrita,CR,92.01,overcast clouds,9.5201,-84.3225,Beso del Viento
19,Sultanpur,IN,57.96,clear sky,26.2667,82.0667,OYO 49568 Vrindavan Guest House
21,Vaini,TO,78.96,scattered clouds,-21.2,-175.2,Keleti Beach Resort
22,Ponta Do Sol,PT,66.83,overcast clouds,32.6667,-17.1,Hotel do Campo
25,Hobart,AU,62.46,overcast clouds,-42.8794,147.3294,Mantra on Collins Hobart
26,Caxito,AO,77.65,light rain,-8.5785,13.6643,
27,Bluff,NZ,53.8,broken clouds,-46.6,168.3333,Bluff Homestead - Guesthouse & Campervan Park
29,Labuhan,ID,80.28,overcast clouds,-6.8844,112.2051,PT PPI Lamongan Tambak C
30,Kapaa,US,73.11,light rain,22.0752,-159.319,Sheraton Kauai Coconut Beach Resort
32,Cidreira,BR,72.93,scattered clouds,-30.1811,-50.2056,Hotel Castelo
33,Naze,JP,53.51,light rain,28.3667,129.4833,Shishime Hotel
34,Mar Del Plata,AR,80.62,moderate rain,-38.0023,-57.5575,Gran Hotel Mar del Plata
36,Puerto Ayora,EC,80.56,overcast clouds,-0.7393,-90.3518,Finch Bay Galapagos Hotel
37,Ushuaia,AR,56.86,scattered clouds,-54.8,-68.3,Albatros Hotel
38,Bahia De Caraquez,EC,80.78,overcast clouds,-0.6,-80.4167,Saiananda Eco-Hotel
39,Ardesen,TR,48.16,overcast clouds,41.1911,40.9875,Green Suada Hotel
40,Sakakah,SA,56.68,broken clouds,29.9697,40.2064,Fakhamat Al Orjoana Apartment
42,Port Elizabeth,ZA,63.1,few clouds,-33.918,25.5701,39 On Nile Guest House
43,Bambous Virieux,MU,78.22,broken clouds,-20.3428,57.7575,Casa Tia Villa
44,Hermanus,ZA,61.81,clear sky,-34.4187,19.2345,Misty Waves Boutique Hotel
45,Garoua,CM,77.4,broken clouds,9.3,13.4,Dreamland Hotel Annexe Bockle
46,Arraial Do Cabo,BR,78.66,broken clouds,-22.9661,-42.0278,Pousada Porto Praia
47,Albany,US,53.58,scattered clouds,42.6001,-73.9662,
48,Stornoway,GB,48.16,broken clouds,58.2093,-6.3865,Caladh Inn
51,Kruisfontein,ZA,60.89,clear sky,-34.0033,24.7314,Oyster Bay House Rental
52,Knysna,ZA,60.84,clear sky,-34.0363,23.0471,Protea Hotel by Marriott Knysna Quays
53,Kavieng,PG,81.07,light rain,-2.5744,150.7967,Nusa Island Retreat
54,Punta Arenas,CL,60.82,broken clouds,-53.15,-70.9167,Hotel Hain
56,Aguilas,ES,58.33,overcast clouds,37.4063,-1.5829,Hotel Carlos III
58,Cape Town,ZA,72.01,clear sky,-33.9258,18.4232,Southern Sun Waterfront Cape Town
59,Kalmunai,LK,75.9,overcast clouds,7.4167,81.8167,VS Villa
61,Lubango,AO,60.13,clear sky,-14.9172,13.4925,Hotel Serra da Chela
63,Lafia,NG,81.77,broken clouds,8.4833,8.5167,Low Cost Housing Estate
65,Avarua,CK,80.65,few clouds,-21.2078,-159.775,Paradise Inn
66,Lompoc,US,63.41,clear sky,34.6391,-120.4579,"Holiday Inn Express Lompoc, an IHG Hotel"
67,Bathsheba,BB,83.01,few clouds,13.2167,-59.5167,Atlantis Hotel
70,Bredasdorp,ZA,61.29,clear sky,-34.5322,20.0403,Bredasdorp Country Manor
71,Chuy,UY,71.73,clear sky,-33.6971,-53.4616,Nuevo Hotel Plaza
72,Abu Dhabi,AE,71.96,clear sky,24.4667,54.3667,Ramee Garden Hotel Apartments
73,Greece,US,47.14,few clouds,43.2098,-77.6931,"Homewood Suites by Hilton Rochester/Greece, NY"
74,Ribeira Grande,PT,59.4,scattered clouds,38.5167,-28.7,Quinta da Meia Eira
75,Hilo,US,79.29,clear sky,19.7297,-155.09,Hilo Hawaiian Hotel
78,Garissa,KE,84.97,overcast clouds,-0.4536,39.6401,Sharif Plaza Hotel
80,Natitingou,BJ,77.23,clear sky,10.3042,1.3796,Auberge Centrale
82,Kaitangata,NZ,53.92,few clouds,-46.2817,169.8464,Kaitangata Motor Camp
86,Mataura,NZ,53.47,light rain,-46.1927,168.8643,Ellie's Villa
87,Atuona,PF,77.65,clear sky,-9.8,-139.0333,Villa Enata
88,Karwar,IN,74.23,scattered clouds,14.8,74.1333,Netalco Connects
90,Banyo,CM,73.76,overcast clouds,6.75,11.8167,Motel JOMBA
91,Sola,VU,81.37,overcast clouds,-13.8833,167.55,Leumerus Bungalows
92,Pacific Grove,US,55.42,clear sky,36.6177,-121.9166,Lovers Point Inn
93,Cairns,AU,78.75,broken clouds,-16.9167,145.7667,Mantra Trilogy Cairns
94,Alta Floresta,BR,85.82,light rain,-9.8756,-56.0861,Floresta Amazonica Hotel
96,East London,ZA,63.54,light rain,-33.0153,27.9116,Tu Casa
97,Tandil,AR,86.31,overcast clouds,-37.3217,-59.1332,HOSTAL DE LA SIERRA TANDIL
99,Jatai,BR,78.93,overcast clouds,-17.8814,-51.7144,La Vitre Hotel
100,Thinadhoo,MV,81.99,broken clouds,0.5333,72.9333,
102,Fayaoue,NC,78.3,overcast clouds,-20.65,166.5333,Chez Dydyce Guesthouse
105,Ternate,ID,80.78,overcast clouds,0.8,127.4,Sahid Bela Ternate Hotel
106,Lorengau,PG,80.29,overcast clouds,-2.0226,147.2712,Lorengau Harbourside Hotel
109,Sao Felix Do Xingu,BR,84.61,overcast clouds,-6.6447,-51.995,Rio Xingu Camping
110,Te Anau,NZ,50.99,broken clouds,-45.4167,167.7167,Kingsgate Hotel Te Anau
112,Fortuna,US,48.92,clear sky,40.5982,-124.1573,Super 8 by Wyndham Fortuna
115,Georgetown,MY,78.89,scattered clouds,5.4112,100.3354,Cititel Penang
119,Broken Hill,AU,76.71,broken clouds,-31.95,141.4333,Royal Exchange Hotel
120,Havelock,US,73.94,scattered clouds,34.8791,-76.9013,Sherwood Motel
122,Airai,TL,60.93,overcast clouds,-8.9266,125.4092,Juvinal Martin
125,Nkayi,CG,72.37,overcast clouds,-4.1841,13.2884,Résidence privée du Maire NKAYI
126,Hithadhoo,MV,82.2,scattered clouds,-0.6,73.0833,Scoop Guest House
127,Tadine,NC,73.72,scattered clouds,-21.55,167.8833,
129,Minas,UY,75.67,scattered clouds,-34.3759,-55.2377,Hotel Minas
130,Namibe,AO,68.32,clear sky,-15.1961,12.1522,Hotel Chik Chik Namibe
131,Urucara,BR,84.31,overcast clouds,-2.5364,-57.76,Pousada Maria Bonita
132,Barra Patuca,HN,79.74,overcast clouds,15.8,-84.2833,
133,Mount Isa,AU,82.17,light rain,-20.7333,139.5,ibis Styles Mt Isa Verona
134,Awbari,LY,54.1,clear sky,26.5921,12.7805,فندق أوباري
136,North Bend,US,46.85,overcast clouds,43.4065,-124.2243,Red Lion Hotel Coos Bay
139,Marsabit,KE,69.98,overcast clouds,2.3284,37.9899,Chicho Hotel
141,Coihaique,CL,84.72,clear sky,-45.5752,-72.0662,Diego De Almagro Coyhaique
142,San Andres,CO,84.22,broken clouds,12.5847,-81.7006,Hotel Arena Blanca
143,Bethel,US,58.08,overcast clouds,41.3712,-73.414,Courtyard by Marriott Danbury
145,Souillac,MU,78.37,broken clouds,-20.5167,57.5167,Shanti Maurice Resort & Spa
146,Tura,IN,57.81,clear sky,25.5198,90.2201,Hotel RIKMAN Continental
147,Tautira,PF,84.22,broken clouds,-17.7333,-149.15,Pension Oaoa
148,Ancud,CL,63.43,overcast clouds,-41.8697,-73.8203,Hotel Arena Gruesa
151,Lebu,CL,61.54,clear sky,-37.6167,-73.65,Hostal Las Lilas
153,Penzance,GB,49.77,broken clouds,50.1186,-5.5371,Artist Residence Penzance
155,Saint-Raphael,HT,82.15,few clouds,19.4333,-72.2,Adouly Hôtel
156,Marsa Matruh,EG,58.26,few clouds,31.3525,27.2453,Beau Site
157,Northam,GB,48.02,clear sky,51.0333,-4.2167,Durrant House Hotel
159,Salalah,OM,73.0,scattered clouds,17.0151,54.0924,"HAMDAN PLAZA HOTEL SALALAH, an HTG Hotel"
160,Laguna,US,55.63,mist,38.421,-121.4238,"Holiday Inn Express & Suites Elk Grove Central - Hwy 99, an IHG Hotel"
161,Carnarvon,AU,69.87,clear sky,-24.8667,113.6333,Hospitality Carnarvon
162,Le Port,RE,75.2,few clouds,-20.9373,55.2919,KORBEY D'OR OUEST
164,Morros,BR,83.39,overcast clouds,-9.4467,-46.3003,
165,Chuncheng,CN,58.86,overcast clouds,22.1731,111.7886,7Days Inn Yangjiang Yangchun Bus Terminal
166,Majene,ID,78.85,overcast clouds,-3.5403,118.9707,Kost Putri RABBANI
168,Dera Bugti,PK,48.6,clear sky,29.0307,69.151,Nawab Bugti House
171,Bozoum,CF,74.53,clear sky,6.3193,16.3799,
173,Muros,ES,53.83,clear sky,42.7762,-9.0603,Apartment Av. Castelao
174,Caravelas,BR,82.09,clear sky,-17.7125,-39.2481,Pousada dos Navegantes
175,Cockburn Town,TC,79.12,clear sky,21.4612,-71.1419,Osprey Beach Hotel
177,Okato,NZ,59.41,overcast clouds,-39.2,173.8833,Goodin Country Garden
178,Gulu,UG,78.44,overcast clouds,2.7746,32.299,ACHOLI INN
179,Arinos,BR,73.33,overcast clouds,-15.9169,-46.1056,casa do bruno
182,Dingle,PH,74.35,overcast clouds,10.9995,122.6711,SEGAYA PROPERTY
184,Cabo San Lucas,MX,79.52,overcast clouds,22.8909,-109.9124,Hotel Tesoro Los Cabos
186,Port-Gentil,GA,80.35,overcast clouds,-0.7193,8.7815,Fengshui Residence
187,Tuatapere,NZ,53.82,overcast clouds,-46.1333,167.6833,Ron and Tony's Bed & Breakfast
189,Eagle Pass,US,76.51,overcast clouds,28.7091,-100.4995,"Holiday Inn Express & Suites Eagle Pass, an IHG Hotel"
191,Qandala,SO,76.44,broken clouds,11.472,49.8728,
192,Msowero,TZ,74.43,scattered clouds,-6.5333,37.2,Sagumo House
194,Sandwick,GB,48.02,clear sky,60.0,-1.25,Beach House Self-Catering Accomodation
195,Tamandare,BR,81.09,scattered clouds,-8.7597,-35.1047,Pousada 100 Passos
196,Catamarca,AR,91.78,overcast clouds,-28.4696,-65.7852,Amerian Catamarca Park Hotel
197,Neuenkirchen,DE,47.79,overcast clouds,52.2447,7.3718,Wilminks Parkhotel
198,Lere,NG,68.92,broken clouds,10.387,8.5726,
202,Bundaberg,AU,71.22,overcast clouds,-24.85,152.35,Takalvan Motel
203,Paita,PE,82.96,overcast clouds,-5.0892,-81.1144,Hotel Náutico de Paita
205,Saint-Philippe,RE,74.79,scattered clouds,-21.3585,55.7679,"Chambres d'hôte ""La Trinité"""
209,Nanakuli,US,80.55,clear sky,21.3906,-158.1547,Camp Pālehua
210,Kahului,US,78.84,clear sky,20.8947,-156.47,Maui Seaside Hotel
211,Victoria,HK,64.33,overcast clouds,22.2855,114.1577,Mini Hotel Central
213,Kernersville,US,70.86,overcast clouds,36.1199,-80.0736,"Holiday Inn Express Kernersville, an IHG Hotel"
214,Sao Joao Da Barra,BR,76.78,moderate rain,-21.6403,-41.0511,Pousada Porto De Canoas
215,Brae,GB,48.11,scattered clouds,60.3964,-1.353,Busta House Hotel
216,Harper,LR,80.83,clear sky,4.375,-7.7169,Screensaver
217,Dedougou,BF,82.36,broken clouds,12.4667,-3.4667,Hôtel Bon Séjour
219,Rawson,AR,81.21,overcast clouds,-43.3002,-65.1023,Hosteria Sampedro
221,Merauke,ID,78.91,overcast clouds,-8.4667,140.3333,
223,Aswan,EG,59.76,overcast clouds,24.0934,32.907,Nuba Nile
224,Yulara,AU,82.24,clear sky,-25.2406,130.9889,Desert Gardens Hotel - Ayers Rock Resort
226,Filadelfia,US,60.12,clear sky,39.9523,-75.1638,"The Ritz-Carlton, Philadelphia"
227,Nobres,BR,76.12,overcast clouds,-14.7203,-56.3275,Hotel Portal Nobres
229,Hualmay,PE,72.82,scattered clouds,-11.0964,-77.6139,Hotel Villa Kitzia Huacho
230,Castro-Urdiales,ES,52.23,clear sky,43.3829,-3.2204,Hotel Las Rocas Playa
231,Xai-Xai,MZ,72.05,overcast clouds,-25.0519,33.6442,Complexo da Familia
232,Bubaque,GW,82.67,overcast clouds,11.2833,-15.8333,"Casa Dora, Bubaque"
233,Alexandria,EG,59.67,few clouds,31.2156,29.9553,Royal Crown Hotel
234,New Norfolk,AU,62.1,overcast clouds,-42.7826,147.0587,The Shingles Riverside Cottages
235,Kloulklubed,PW,83.73,broken clouds,7.0419,134.2556,Storyboard Beach Resort
236,Kasongo-Lunda,CD,71.42,few clouds,-6.4667,16.8167,
237,La Ligua,CL,74.98,clear sky,-32.4524,-71.2311,Hotel Anchimallen
240,Puerto Baquerizo Moreno,EC,69.03,broken clouds,-0.9,-89.6,Hotel los Algarrobos
241,Adre,TD,70.86,clear sky,13.4667,22.2,
243,Isangel,VU,71.71,broken clouds,-19.55,169.2667,Tanna Lodge
244,Meulaboh,ID,77.05,overcast clouds,4.1363,96.1285,Kost Pria
250,Kisangani,CD,74.64,overcast clouds,0.5167,25.2,Grand Ramela Hotel
251,Touros,BR,86.9,clear sky,-5.1989,-35.4608,INN NEW HORIZON
253,Karratha,AU,82.63,light rain,-20.7377,116.8463,ibis Styles Karratha
254,Anito,PH,78.57,light rain,12.4497,125.2886,FELIPA LAODENIO PROPERTY
255,Alanya,TR,48.33,overcast clouds,36.5438,31.9998,Panorama Hotel
256,Alwar,IN,50.13,clear sky,27.5667,76.6,Hotel Aashyana Alwar
257,Sibu,MY,73.18,overcast clouds,2.3,111.8167,RH HOTEL (4 Star)
260,Hamilton,US,48.65,overcast clouds,39.1834,-84.5333,Six Acres Bed & Breakfast
265,Faya,SA,56.14,clear sky,18.3851,42.4509,املاك خالد الشعشوع
267,Mamallapuram,IN,78.06,scattered clouds,12.6264,80.1722,Radisson Blu Resort Temple Bay Mamallapuram
268,Sibolga,ID,75.2,overcast clouds,1.7427,98.7792,Hotel Syariah CN Darussalam
269,Bandarbeyla,SO,77.31,broken clouds,9.4942,50.8122,JABIR HOTEL
270,Avera,US,68.92,overcast clouds,33.194,-82.5271,
271,San Francisco,US,55.6,clear sky,37.7749,-122.4194,The Clift Royal Sonesta Hotel
272,Carbonia,IT,54.0,clear sky,39.1672,8.5222,Lu 'Hotel
273,Rantepao,ID,67.15,broken clouds,-2.9701,119.8978,Hotel Luta Resort
274,Bom Jesus,BR,90.68,overcast clouds,-9.0744,-44.3586,Hotel Brasão & Floricultura Bella Flor
275,Porto Novo,BJ,81.16,scattered clouds,6.4965,2.6036,Tour Eiffel Hotel Benin
278,Constitucion,CL,65.37,clear sky,-35.3333,-72.4167,Hotel Boutique Las Azucenas
279,Ewa Beach,US,80.55,clear sky,21.3156,-158.0072,Uncle Junior Robert
280,Nelson,NZ,61.7,clear sky,-41.2833,173.2833,Rutherford Hotel Nelson
281,Esperance,AU,58.68,overcast clouds,-33.8667,121.9,Hospitality Esperance
282,Najran,SA,61.16,clear sky,17.4924,44.1277,محمد هادي ال فطيح
284,La Palma,US,67.03,clear sky,33.8464,-118.0467,La Quinta Inn & Suites by Wyndham Buena Park
285,Yangjiang,CN,60.71,broken clouds,21.85,111.9667,HUALUXE Yangjiang City Center
286,De Aar,ZA,66.04,broken clouds,-30.6497,24.0123,Nyibiba Guesthouse
287,Alofi,NU,79.9,light rain,-19.0595,-169.9187,Taloa Heights
288,Ati,TD,75.29,clear sky,13.2154,18.3353,
289,Vestnes,NO,49.84,broken clouds,62.6264,7.0884,Vestheim youth center
291,Daru,PG,78.37,moderate rain,-9.0763,143.2092,Daru Lodge
292,Baguanos,CU,82.69,few clouds,20.7517,-76.0269,Magalis y William
293,Muncar,ID,77.94,overcast clouds,-8.4333,114.3333,Zaky Homestay
294,Gorontalo,ID,75.13,broken clouds,0.5412,123.0595,Maqna Hotel by Prasanthi
295,Coahuayana,MX,88.25,overcast clouds,18.7333,-103.6833,El rranchito michuacan de ocampos
296,Kudahuvadhoo,MV,82.26,overcast clouds,2.6708,72.8944,Niyama Private Islands Maldives
299,Vallenar,CL,87.53,clear sky,-28.5708,-70.7581,Humacao Bed & Breakfast
301,Saint-Joseph,RE,73.78,few clouds,-21.3667,55.6167,"""Plantation Bed and Breakfast"
302,Lagoa,PT,58.75,overcast clouds,39.05,-27.9833,Casa Das Faias
303,Grass Valley,US,49.77,clear sky,39.2191,-121.0611,Holbrooke Hotel
309,Marsaxlokk,MT,54.09,few clouds,35.8419,14.5431,Water's Edge
310,Angoram,PG,76.15,overcast clouds,-4.0625,144.0661,
311,Guerrero Negro,MX,65.62,clear sky,27.9769,-114.0611,"Casa Laguna, Bed & Breakfast"
314,Kirakira,SB,78.19,overcast clouds,-10.4544,161.9205,SanBiz Lodge
316,Anajatuba,BR,86.2,overcast clouds,-3.2644,-44.6197,Pousada Por do Sol
317,Tevaitoa,PF,81.23,light rain,-16.7833,-151.5,Hôtel Raiatea Lodge
318,Flinders,AU,66.2,overcast clouds,-34.5833,150.8552,Shellharbour Resort & Conference Centre
320,Mount Gambier,AU,73.31,overcast clouds,-37.8333,140.7667,The Commodore
321,Samarai,PG,80.71,moderate rain,-10.6167,150.6667,Nuli Sapi
322,San Patricio,US,81.01,overcast clouds,28.017,-97.5169,"Motel 6 Sinton, TX"
324,Millbrook,US,71.67,overcast clouds,32.4799,-86.3619,Courtyard by Marriott Montgomery Prattville
325,Labrea,BR,80.24,overcast clouds,-7.2586,-64.7981,Hotel Novo Horizonte
326,Bowen,AU,79.79,broken clouds,-20.0167,148.2333,Castle Motor Lodge Motel
328,Novo Aripuana,BR,81.07,overcast clouds,-5.1206,-60.3797,Hotel Ezequiel
329,Paramonga,PE,72.1,broken clouds,-10.6667,-77.8333,HOSTAL MI CHALET - PARAMONGA
330,Santa Rosalia,MX,64.85,clear sky,27.3167,-112.2833,Hotel Las Casitas Santa Rosalia
332,Hobyo,SO,78.64,overcast clouds,5.3505,48.5268,Halane Hotel and Restaurent
333,Westport,US,60.76,clear sky,41.1415,-73.3579,Norwalk Inn
334,Sandy Bay,AU,62.49,overcast clouds,-42.913,147.3532,St Ives Hobart Accommodation Tasmania
335,San Pedro,PH,79.11,overcast clouds,14.35,121.0167,Villa Veronica Resort Private Pool
340,Botshabelo,ZA,56.26,overcast clouds,-29.2702,26.7052,Botshabelo-L
341,Taltal,CL,69.19,overcast clouds,-25.4,-70.4833,Residencial Karime
342,Comodoro Rivadavia,AR,64.26,thunderstorm with light rain,-45.8667,-67.5,Austral Hotel
344,Geraldton,AU,55.81,scattered clouds,-28.7667,114.6,Broadwater Mariner Resort
345,Ahuimanu,US,78.78,few clouds,21.4447,-157.8378,Paradise Bay Resort
349,Kawhia,NZ,63.37,scattered clouds,-38.0651,174.8183,Kawhia Beachside Scape Holiday Park
351,Vila Velha,BR,85.95,moderate rain,-20.3297,-40.2925,Quality Suites Vila Velha
352,Xuddur,SO,80.53,overcast clouds,4.1213,43.8894,Banjanay Hotel
356,Alugan,PH,80.26,overcast clouds,12.2188,125.4808,JM Lodge
357,San Carlos,VE,88.29,overcast clouds,9.6612,-68.5827,Hotel Paternopoli
359,Pimenta Bueno,BR,77.76,light rain,-11.6725,-61.1936,Cristalina Palace Hotel
360,Conway,US,55.24,mist,35.0887,-92.4421,"Country Inn & Suites by Radisson, Conway, AR"
361,Miraflores,MX,70.56,broken clouds,19.2167,-98.8083,Hotel Mansión
364,Manadhoo,MV,82.08,broken clouds,5.7667,73.3833,Reason Inn
365,Santiago Del Estero,AR,94.8,clear sky,-27.7951,-64.2615,Apartamentos Castelli 90
366,Dwarka,IN,69.57,clear sky,22.2394,68.9678,Hotel Narayan Avezika Comfort
367,Gashua,NG,69.91,clear sky,12.871,11.0482,Forte Oil - Old Lorry Park
368,Makakilo City,US,79.12,clear sky,21.3469,-158.0858,Marriott's Ko Olina Beach Club
372,Glasgow,GB,46.2,overcast clouds,55.8652,-4.2576,Glasgow Marriott Hotel
373,Tambura,SS,82.13,overcast clouds,5.6,27.4667,Rikito Lodge
374,Damara,CF,81.43,overcast clouds,4.9608,18.7035,
375,Vaitape,PF,80.04,moderate rain,-16.5167,-151.75,Conrad Bora Bora Nui
376,Pinotepa De Don Luis,MX,87.94,clear sky,16.4167,-97.9167,
377,Port Lincoln,AU,60.4,clear sky,-34.7333,135.8667,Port Lincoln Hotel
379,Kavaratti,IN,82.31,clear sky,10.5669,72.642,Hotels in Lakshadweep Islands
382,Boa Vista,BR,85.98,broken clouds,2.8197,-60.6733,Aipana Plaza Hotel
383,Jeremie,HT,81.99,few clouds,18.65,-74.1167,Auberge’Inn
384,Klaksvik,FO,47.32,overcast clouds,62.2266,-6.589,Airbnb rooms
385,Maningrida,AU,80.04,overcast clouds,-12.0667,134.2667,Dhukurrdji Lodge
388,Tucuman,AR,91.4,broken clouds,-26.8241,-65.2226,Dallas Hotel Tucuman
390,Gamba,GA,76.28,overcast clouds,-2.65,10.0,
391,Springdale,US,59.11,moderate rain,36.1867,-94.1288,Springdale Inn
397,Asfi,MA,61.75,clear sky,32.2994,-9.2372,Hôtel Abda
398,Maragogi,BR,81.73,few clouds,-9.0122,-35.2225,Salinas do Maragogi All Inclusive Resort
400,Teknaf,BD,64.58,clear sky,20.8624,92.3058,Forestry Guesthouse
403,Marovoay,MG,82.54,light rain,-16.1,46.6333,Hôtel les Oliviers Marovoay
404,Namatanai,PG,79.39,moderate rain,-3.6667,152.4333,Seagulls Inn Namatani
405,Batemans Bay,AU,65.1,scattered clouds,-35.7167,150.1833,Batemans Bay Marina Resort
406,Gafanha Da Nazare,PT,57.76,clear sky,40.6362,-8.7134,Hotel Barra
408,Mugumu,TZ,66.22,overcast clouds,-1.85,34.7,Lemala Mara
411,Susangerd,IR,71.62,overcast clouds,31.5608,48.1831,دفتر خدمات هوایی وجهانگردی نسیم گستر دشت آزادگان
412,Manaus,BR,81.09,thunderstorm,-3.1019,-60.025,Manaus Hotéis Millennium
413,Saint-Pierre,RE,74.88,light rain,-21.3393,55.4781,Lindsey Hôtel
414,Taoudenni,ML,83.23,overcast clouds,22.6783,-3.9836,
417,Tual,ID,82.54,overcast clouds,-5.6667,132.75,Grand Vilia Hotel
419,Altus,US,63.16,overcast clouds,34.6381,-99.334,"Holiday Inn Express & Suites Altus, an IHG Hotel"
420,Akcaabat,TR,51.67,broken clouds,41.0212,39.5715,AKOF APART
421,Huarmey,PE,73.74,clear sky,-10.0681,-78.1522,Hotel Miramar
422,Praia Da Vitoria,PT,59.76,overcast clouds,38.7333,-27.0667,Hotel Branco I
423,Manado,ID,75.97,few clouds,1.487,124.8455,Aryaduta Hotel
424,Bucerias,MX,82.38,scattered clouds,20.75,-105.3333,Royal Decameron Complex - Puerto Vallarta
425,Palauig,PH,79.77,light rain,15.435,119.9045,Alperi Botique Resort
428,Puerto Escondido,MX,85.03,clear sky,15.85,-97.0667,Aldea del Bazar Hotel and Spa
429,Colac,AU,77.02,broken clouds,-38.3333,143.5833,Otway Gate Motel
432,Tiarei,PF,84.22,few clouds,-17.5333,-149.3333,Le Rocher de Tahiti
433,Banamba,ML,81.12,overcast clouds,13.55,-7.45,Kassela de Banamba
435,Valparaiso,CL,79.03,clear sky,-33.0393,-71.6273,Hotel Ultramar
438,Sorong,ID,81.55,overcast clouds,-0.8833,131.25,Waigo Splash Hotel
439,Saldanha,ZA,67.82,scattered clouds,-33.0117,17.9442,Blue Bay Lodge
440,Itapeva,BR,81.05,broken clouds,-23.9822,-48.8756,Grand Hotel Itapeva
441,Mahajanga,MG,82.42,few clouds,-15.7167,46.3167,Restaurant Greedy Coco Lodge Majunga
442,Tabou,CI,80.92,clear sky,4.423,-7.3528,hotêl doufoulougou
444,Kaoma,ZM,63.12,overcast clouds,-14.7833,24.8,KAOMA AIRPORT
445,Athens,GR,50.25,clear sky,37.9795,23.7162,Novotel Athenes
446,Port Moresby,PG,77.45,light rain,-9.4431,147.1797,Lamana Hotel (Port Moresby)
447,Balabac,PH,81.27,overcast clouds,7.9868,117.0645,Sing and Swing Lodge
449,Maues,BR,85.75,overcast clouds,-3.3836,-57.7186,Hotel Miramar
450,Along,IN,50.23,clear sky,28.1667,94.7667,Hotel West
451,Nantucket,US,60.91,clear sky,41.2835,-70.0995,Jared Coffin House
452,Fairlie,GB,46.4,clear sky,55.756,-4.8556,Brisbane House Hotel
456,Acara,BR,81.37,overcast clouds,-1.9608,-48.1967,Hotel Vale do Acará
459,Ugoofaaru,MV,82.0,few clouds,5.6667,73.0,Ungoofaaru Inn
460,Abbeville,FR,46.49,clear sky,50.1,1.8333,Hôtel Mercure Abbeville Centre - Porte de la Baie de Somme
461,Maymyo,MM,52.88,clear sky,22.0333,96.4667,Tiger Hotel
465,Japura,ID,74.12,overcast clouds,-0.3167,102.35,Rumah mbah Jamah
467,Fort-Shevchenko,KZ,46.36,overcast clouds,44.5086,50.263,Oasis hotel Bautino
469,Les Cayes,HT,83.17,clear sky,18.2,-73.75,Villa Orphee
470,Christchurch,NZ,57.33,clear sky,-43.5333,172.6333,The George
471,Canapi,BR,90.57,overcast clouds,-9.1174,-37.6012,
472,Manzanillo,CU,90.54,clear sky,20.3433,-77.1167,"HOSTAL ""THE YELLOW HOUSE"""
474,Alice Springs,AU,78.35,few clouds,-23.7,133.8833,Desert Palms Alice Springs
475,Arlit,NE,69.4,few clouds,18.7369,7.3853,Case de Passage De la Prefecture
476,Matadi,CD,73.53,overcast clouds,-5.8167,13.45,Hotel Vivi Palace
478,Gwadar,PK,69.28,clear sky,25.1216,62.3254,Sadaf Resort
480,Adrar,MR,71.01,overcast clouds,20.5022,-10.0711,
481,Itarema,BR,85.32,clear sky,-2.9248,-39.9167,"Sea Lounge! Bar, Club & Restaurant"
483,Camabatela,AO,62.28,overcast clouds,-8.1881,15.375,Pensão E Restaurantes
484,Mananjary,MG,77.52,broken clouds,-21.2167,48.3333,Vahiny Lodge
486,Mazamet,FR,49.62,clear sky,43.49,2.373,La Villa de Mazamet
487,Seguela,CI,83.41,clear sky,7.9611,-6.6731,Hotel le Carrefour
488,Novita,CO,80.58,overcast clouds,4.9551,-76.6053,B/ Buenos Aires Sector Las Curvitas
489,Damaturu,NG,69.91,clear sky,11.747,11.9608,"Hayas Guest Inn, Central Roundabout, Gujba Road"
490,Cabatuan,PH,75.36,overcast clouds,10.8794,122.486,MVC Transient Room
492,Puerto Leguizamo,CO,79.38,overcast clouds,-0.1934,-74.7819,la casona de juancho
493,Freeport,US,61.0,clear sky,40.6576,-73.5832,The Freeport Inn and Marina
495,Ilo,PE,71.6,clear sky,-17.6394,-71.3375,Torreblanca Hotel
496,Keti Bandar,PK,64.06,clear sky,24.1447,67.4497,Haji laloo memon house
497,Ikongo,MG,72.16,scattered clouds,-21.8833,47.4333,
499,Simao,CN,49.8,broken clouds,22.7886,100.9748,Changyu Hotel
500,Ranong,TH,75.47,moderate rain,9.9658,98.6348,Tinidee Hotel@Ranong
501,Sistranda,NO,46.9,light rain,63.7256,8.834,Hotell Frøya
505,Porbandar,IN,66.79,clear sky,21.6422,69.6093,Lords Inn Porbandar
506,Eureka,US,49.24,few clouds,40.8021,-124.1637,Eureka Inn Trademark By Wyndham
507,Belize,BZ,80.92,scattered clouds,17.25,-88.75,Villa San Juan
510,Katobu,ID,75.9,scattered clouds,-4.9408,122.5276,La Ode Husein
513,Virginia Beach,US,73.06,overcast clouds,36.8529,-75.978,Hilton Virginia Beach Oceanfront
514,Richards Bay,ZA,64.98,overcast clouds,-28.783,32.0377,BON Hotel Waterfront Richards Bay
516,Codrington,AU,74.55,scattered clouds,-38.2667,141.9667,Codrington Gardens Bed And Breakfast
517,Mahebourg,MU,78.26,broken clouds,-20.4081,57.7,Shandrani Beachcomber Resort & Spa
519,Maneadero,MX,68.18,few clouds,31.7167,-116.5667,Casa De Thompson
520,Zhuhai,CN,64.06,scattered clouds,22.2769,113.5678,Nanyang Seascape Hotel Zhuhai Hotel
521,Santa Fe,AR,93.02,clear sky,-31.6333,-60.7,Conquistador Hotel
522,Grafton,US,58.21,clear sky,42.207,-71.6856,The Grafton Inn
525,Nanuque,BR,85.35,overcast clouds,-17.8392,-40.3539,Hotel e Churrascaria Boi na Brasa
529,Bereda,ES,46.42,clear sky,43.2686,-7.5406,Pazo de Verdes
530,Broome,US,51.71,clear sky,42.2506,-75.833,Chenango Valley State Park
532,Delvada,IN,66.92,clear sky,20.7667,71.0333,Hotel Shivam
534,Lamu,KE,80.82,overcast clouds,-2.2717,40.902,Lamu House
535,Great Yarmouth,GB,47.44,overcast clouds,52.6083,1.7305,Comfort Hotel Great Yarmouth
536,Pointe-Noire,CG,75.11,overcast clouds,-4.7761,11.8635,Kactus Lodge
537,Zemio,CF,78.06,overcast clouds,5.0314,25.1361,OCHA Office
538,Birao,CF,74.07,few clouds,10.2849,22.7882,
539,Sao Joao De Pirabas,BR,84.67,moderate rain,-0.7747,-47.1772,POUSADA SOL E MAR
540,Vestmannaeyjar,IS,48.11,overcast clouds,63.4427,-20.2734,Glamping & Camping
541,Mailsi,PK,51.69,clear sky,29.8003,72.1758,Mian Lodge
542,Praia,CV,75.74,broken clouds,14.9215,-23.5087,LT Aparthotel
546,Rocha,UY,74.35,scattered clouds,-34.4833,-54.3333,Hotel Arrarte
547,Carutapera,BR,85.46,overcast clouds,-1.195,-46.02,Lidera
548,Chiredzi,ZW,65.44,light rain,-21.05,31.6667,Clevers Hotel Chiredzi
550,Byron Bay,AU,69.06,overcast clouds,-28.65,153.6167,Backpackers Inn
551,Papayal,PE,86.0,overcast clouds,-4.0761,-80.7361,
552,Adzope,CI,81.43,scattered clouds,6.1069,-3.8619,Hôtel AKL
553,Palmer,US,59.29,scattered clouds,42.1584,-72.3287,Wedgewood Motel
554,Katete,UG,64.53,overcast clouds,-0.7818,29.7544,
555,Pocone,BR,76.12,moderate rain,-16.2567,-56.6228,Hotel e Churrascaria Pantaneira
556,Mattru,SL,79.77,few clouds,7.6244,-11.8332,"Mondkor Town, Bagbo Chiefdom, Bo District"
557,Bengkulu,ID,75.72,overcast clouds,-3.8004,102.2655,Grage Hotel Bengkulu
558,Rabo De Peixe,PT,60.31,few clouds,37.8,-25.5833,Quinta das Giestas
560,Ambilobe,MG,76.53,broken clouds,-13.2,49.05,Hôtel & Restaurant DIANA Ambilobe
564,Whitianga,NZ,65.01,clear sky,-36.8333,175.7,Beachside Resort Whitianga
566,Deming,US,60.69,clear sky,32.2687,-107.7586,Best Western Deming Southwest Inn
567,Plettenberg Bay,ZA,60.6,clear sky,-34.0527,23.3716,Thanda Vista B&B
568,Niquelandia,BR,79.77,light rain,-14.4739,-48.4597,Hotel Suinã
569,Pringsewu,ID,74.46,overcast clouds,-5.3582,104.9744,Urban Style by Front One
570,Bontang,ID,78.28,overcast clouds,0.1333,117.5,KOPKAR Hotel Bintang Sintuk
572,Salamiyah,SY,50.61,broken clouds,35.0113,37.0532,Gondolas Forum grandchildren and grandparents
574,Mareeba,AU,74.12,broken clouds,-17.0,145.4333,Trinity Plains Tourist Park
575,Inhambane,MZ,67.98,light rain,-23.865,35.3833,Oceano
576,Mancio Lima,BR,85.21,moderate rain,-7.6142,-72.8958,Hotel e Distribuidora Voyage
577,Sebring,US,84.27,clear sky,27.4956,-81.4409,La Quinta Inn & Suites by Wyndham Sebring
578,Vila Franca Do Campo,PT,61.21,overcast clouds,37.7167,-25.4333,Pestana Bahia Praia
579,Barra Do Garcas,BR,81.43,overcast clouds,-15.89,-52.2567,Hotel Pousada Tropical
580,Bambanglipuro,ID,64.6,light rain,-7.95,110.2833,Puri Brata
581,Dawei,MM,72.93,overcast clouds,14.0833,98.2,Hotel Dawei
582,Vao,NC,74.86,clear sky,-22.6667,167.4833,Hotel Kou-Bugny
585,Sulangan,PH,81.59,overcast clouds,11.1373,123.7228,Maia's Beach Resort
590,Hit,IQ,57.51,clear sky,33.6416,42.8251,صالون زيرو
591,Dehloran,IR,63.75,overcast clouds,32.6941,47.2679,کافه گیم استورم
592,Kutum,SD,62.69,clear sky,14.2,24.6667,Dibbo areaمنطقة دبو
593,Lata,PT,56.8,clear sky,40.1629,-8.3327,Casa Maquia
594,Jizan,SA,76.66,clear sky,17.3333,42.6667,شهدان. ابوالحجر
595,Los Llanos De Aridane,ES,60.55,few clouds,28.6585,-17.9182,Valle Aridane
596,Salgado,BR,81.3,light rain,-11.0319,-37.475,Chacara João XXIII
598,Cayenne,GF,87.84,few clouds,4.9333,-52.3333,Hôtel Le Dronmi
599,Lima,PE,70.9,broken clouds,-12.0432,-77.0282,Gran Hotel Bolivar Lima
601,Coracao De Jesus,BR,74.16,light rain,-16.6853,-44.365,Hotel Neves
603,Ibimirim,BR,88.77,overcast clouds,-8.5406,-37.6903,Hotel Paulistão
604,Rio Grande City,US,83.89,overcast clouds,26.3798,-98.8203,La Borde House
605,Eusebio,BR,87.66,few clouds,-3.89,-38.4506,CONDOMINIO GRAN CLASSIC
606,Apricena,IT,51.96,broken clouds,41.7839,15.4437,Bed & Breakfast CORSO ROMA
609,Talisay,PH,78.8,broken clouds,10.2447,123.8494,RedDoorz near Talisay District Hospital
610,Sao Teotonio,PT,55.69,overcast clouds,37.5128,-8.7071,Aterra
612,Bellary,IN,67.03,scattered clouds,15.15,76.9333,Hotel Pawan
613,Cap Malheureux,MU,78.48,clear sky,-19.9842,57.6142,Pereybere Hotel & Spa
614,Martapura,ID,78.89,overcast clouds,-3.4167,114.85,Montana Hotel Syariah
615,Camacha,PT,63.36,scattered clouds,33.0833,-16.3333,Hotel Porto Santo & Spa
616,Waitati,NZ,55.8,overcast clouds,-45.75,170.5667,Arden Country House BnB Dunedin
618,Letlhakane,BW,67.93,overcast clouds,-21.4167,25.5833,Motswedi Hotel P650
620,Manga,BF,80.83,overcast clouds,11.6636,-1.0731,Auberge du 11 décembre de la cité CNSS à Manga
622,Tiznit,MA,58.84,clear sky,29.5833,-9.5,
624,Angra Dos Reis,BR,76.06,overcast clouds,-23.0067,-44.3181,Mercure Angra dos Reis
625,Yarmouth,US,61.02,clear sky,41.7057,-70.2286,Blue Rock Resort
626,Bac Lieu,VN,75.99,overcast clouds,9.285,105.7244,Khách sạn Sài Gòn Bạc Liêu
627,Bria,CF,80.26,overcast clouds,6.5423,21.9863,WFP Guesthouse
628,Hokitika,NZ,56.66,broken clouds,-42.7167,170.9667,Beachfront Hotel Hokitika
629,Belmonte,BR,84.7,scattered clouds,-15.8631,-38.8828,Pousada Monte Carmelo O Pão
630,Coquimbo,CL,66.25,clear sky,-29.9533,-71.3436,Punto de encuentro
631,Marzuq,YE,62.51,clear sky,14.4,46.4667,
633,Visnagar,IN,61.72,clear sky,23.7,72.55,Hotel Rajvi Palace
634,Ixtapa,MX,88.03,scattered clouds,20.7,-105.2,Hotel Plaza Providencia
635,Dovers,VC,80.19,overcast clouds,12.8833,-61.1833,Ocean Breeze
636,Kota Belud,MY,78.66,broken clouds,6.351,116.4305,Tang Dynasty Lodge Kota Belud
637,Montepuez,MZ,74.98,overcast clouds,-13.1256,38.9997,PembaAparthotel
638,Gigmoto,PH,79.56,overcast clouds,13.7796,124.39,Cj's Travellers Inn
639,Santarem,BR,88.03,overcast clouds,-2.4431,-54.7083,Ecotur Lodge
640,Itamaraca,BR,84.88,scattered clouds,-7.7478,-34.8256,Special K's Bed & Breakfast
642,Vila Do Maio,CV,75.99,scattered clouds,15.1333,-23.2167,Hotel Marilu
646,Djambala,CG,69.8,scattered clouds,-2.5447,14.7533,Hotel Ravin D'or
647,Ibipeba,BR,85.23,scattered clouds,-11.6408,-42.0111,Quitanda santos
649,Matara,LK,77.25,overcast clouds,5.9485,80.5353,Amaloh Boutique Resort
650,Ashington,GB,48.81,broken clouds,50.9331,-0.3909,Tirol House
651,Arica,CL,74.75,clear sky,-18.475,-70.3042,Hostal Jardin Del Sol
652,Tukrah,LY,59.68,broken clouds,32.5341,20.5791,Lagrota restaurant
653,Mitsamiouli,KM,80.13,clear sky,-11.3847,43.2844,Foyer ADM
654,Roma,US,48.06,clear sky,43.2128,-75.4557,Wingate By Wyndham Rome
655,Guane,CU,83.77,scattered clouds,22.2025,-84.0875,base de Campismo LosPortales de Guane
656,Acapulco,MX,87.62,few clouds,16.8634,-99.8901,HS Hotsson Smart Acapulco
658,Aberystwyth,GB,46.31,few clouds,52.4155,-4.0829,Aberystwyth Park Lodge Hotel
659,Jerantut,MY,74.25,very heavy rain,3.936,102.3626,Jerantut Hill Resort
660,Taree,AU,64.58,few clouds,-31.9,152.4667,All Seasons Country Lodge Taree
661,Oussouye,SN,78.33,scattered clouds,12.485,-16.5469,Auberge du Routard
662,Chambersburg,US,56.75,overcast clouds,39.9376,-77.6611,"Holiday Inn Express & Suites Chambersburg, an IHG Hotel"
668,La Orilla,MX,83.93,overcast clouds,17.9833,-102.2333,Baymont by Wyndham Lazaro Cardenas
669,Celestun,MX,84.22,broken clouds,20.8667,-90.4,Posada Lilia
670,Colonial Heights,US,74.71,overcast clouds,37.268,-77.4073,Hilton Garden Inn Richmond South/Southpark
671,Pochutla,MX,89.82,clear sky,15.7432,-96.4661,Hotel Posada San Jose
674,Waycross,US,78.67,broken clouds,31.2136,-82.354,Super 8 by Wyndham Waycross GA
675,Asosa,ET,67.55,overcast clouds,10.0667,34.5333,Blendana Hotel Assosa
676,Gadarwara,IN,57.72,clear sky,22.9167,78.7833,HOTEL SHANTIDOOT
677,Atar,MR,78.57,few clouds,20.5169,-13.0499,Oumou Elghoura
678,Manavgat,TR,51.84,few clouds,36.7867,31.4431,River Boutique Hotel
680,Rameswaram,IN,79.88,overcast clouds,9.2833,79.3,Daiwik Hotels Rameswaram
681,Mpongwe,ZM,65.21,light rain,-13.5091,28.155,Guest house
682,Anloga,GH,82.65,few clouds,5.7947,0.8973,Pin Drop Hotel
684,Bacolod,PH,76.95,overcast clouds,10.6667,122.95,Planta Hotel & Residences
